[
    {
        "id": 1,
        "name": "CVS",
        "lat": 25.766630,
        "lng": -80.197780,
        "street": "227 Southwest 8th Street",
        "city": "Miami",
        "state": "Florida",
        "zipcode": 33130,
        "phone": 3058585115
    },
    {
        "id": 2,
        "name": "CVS",
        "lat": 25.731750,
        "lng": -80.367170,
        "street": "10660 Sw 40 St",
        "city": "Miami",
        "state": "Florida",
        "zipcode": 33165,
        "phone": 3052211356
    },
    {
        "id": 3,
        "name": "CVS",
        "lat": 25.731750,
        "lng": -80.367170,
        "street": "983 Washington Ave",
        "city": "Miami",
        "state": "Florida",
        "zipcode": 33139,
        "phone": 7862766127
    },
    {
        "id": 4,
        "name": "CVS",
        "lat": 25.748170,
        "lng": -80.334890,
        "street": "8695 Coral Way",
        "city": "Miami",
        "state": "Florida",
        "zipcode": 33155,
        "phone": 3052644811
    },
    {
        "id": 5,
        "name": "CVS",
        "lat": 25.7609028,
        "lng": -80.3533822,
        "street": "9720 Southwest 8th Street",
        "city": "Miami",
        "state": "Florida",
        "zipcode": 33174,
        "phone": 3052210353
    },
    {
        "id": 6,
        "name": "CVS",
        "lat": 25.7775083,
        "lng": -80.2888454,
        "street": "690 Northwest 57th Avenue",
        "city": "Miami",
        "state": "Florida",
        "zipcode": 33126,
        "phone": 3052643485
    },
    {
        "id": 7,
        "name": "CVS",
        "lat": 25.7618832,
        "lng": -80.1912567,
        "street": "1201 Brickell Ave",
        "city": "Miami",
        "state": "Florida",
        "zipcode": 33131,
        "phone": 3053587577
    },
    {
        "id": 8,
        "name": "CVS",
        "lat": 25.7485969,
        "lng": -80.3032453,
        "street": "2393 Sw 67th Avenue",
        "city": "Miami",
        "state": "Florida",
        "zipcode": 33155,
        "phone": 3052640636
    },
    {
        "id": 9,
        "name": "CVS",
        "lat": 25.8856211,
        "lng": -80.1656198,
        "street": "11890 Biscayne Boulevard",
        "city": "Miami",
        "state": "Florida",
        "zipcode": 33181,
        "phone": 3058929422
    },
    {
        "id": 10,
        "name": "CVS",
        "lat": 25.764916,
        "lng": -80.2604635,
        "street": "3949 Sw 8 St",
        "city": "Miami",
        "state": "Florida",
        "zipcode": 33134,
        "phone": 3054761939
    },
    {
        "id": 11,
        "name": "CVS",
        "lat": 25.7707617,
        "lng": -80.2816645,
        "street": "5252 West Flagler St",
        "city": "Miami",
        "state": "Florida",
        "zipcode": 33134,
        "phone": 3054429946
    },
    {
        "id": 12,
        "name": "CVS",
        "lat": 25.7325066,
        "lng": -80.3366843,
        "street": "8740 Sw 40th Street",
        "city": "Miami",
        "state": "Florida",
        "zipcode": 33165,
        "phone": 3052218337
    },
    {
        "id": 13,
        "name": "CVS",
        "lat": 25.671778638316567,
        "lng": -80.38406302229156,
        "street": "4663 Sw 104 Street",
        "city": "Miami",
        "state": "Florida",
        "zipcode": 33186,
        "phone": 3053872156
    },
    {
        "id": 14,
        "name": "CVS",
        "lat": 25.686703,
        "lng": -80.3504352,
        "street": "8900 Southwest 97th Avenue",
        "city": "Miami",
        "state": "Florida",
        "zipcode": 33176,
        "phone": 3055989021
    },
    {
        "id": 15,
        "name": "CVS",
        "lat": 25.77563464473138,
        "lng": -80.27602239529489,
        "street": "1990 Nw 49 Ave",
        "city": "Miami",
        "state": "Florida",
        "zipcode": 33122,
        "phone": 3055267874
    },
    {
        "id": 16,
        "name": "CVS",
        "lat": 25.7661081,
        "lng": -80.2154081,
        "street": "1243 Sw 8 St",
        "city": "Miami",
        "state": "Florida",
        "zipcode": 33135,
        "phone": 3052857132
    },
    {
        "id": 17,
        "name": "CVS",
        "lat": 25.6853062,
        "lng": -80.3995581,
        "street": "12650 Southwest 88th Street",
        "city": "Miami",
        "state": "Florida",
        "zipcode": 33186,
        "phone": 3052742223
    },
    {
        "id": 18,
        "name": "CVS",
        "lat": 25.7292634,
        "lng": -80.4321383,
        "street": "14705 Southwest 42nd Street",
        "city": "Miami",
        "state": "Florida",
        "zipcode": 33185,
        "phone": 3052200632
    },
    {
        "id": 19,
        "name": "CVS",
        "lat": 25.7435631,
        "lng": -80.4316426,
        "street": "2599 Southwest 147th Avenue",
        "city": "Miami",
        "state": "Florida",
        "zipcode": 33185,
        "phone": 3052073868
    },
    {
        "id": 20,
        "name": "CVS",
        "lat": 25.7790007,
        "lng": -80.2398267,
        "street": "650 Northwest 27th Avenue",
        "city": "Miami",
        "state": "Florida",
        "zipcode": 33125,
        "phone": 3056310874
    },
    {
        "id": 21,
        "name": "CVS",
        "lat": 25.7137872,
        "lng": -80.4183694,
        "street": "13896 Southwest 56th Street",
        "city": "Miami",
        "state": "Florida",
        "zipcode": 33175,
        "phone": 3053872415
    },
    {
        "id": 22,
        "name": "CVS",
        "lat": 25.68560469920053,
        "lng": -80.41594427562015,
        "street": "13675 Sw 88th St",
        "city": "Miami",
        "state": "Florida",
        "zipcode": 33186,
        "phone": 3053851035
    },
    {
        "id": 23,
        "name": "CVS",
        "lat": 25.754830,
        "lng": -80.366604,
        "street": "1549 Southwest 107th Avenue",
        "city": "Miami",
        "state": "Florida",
        "zipcode": 33174,
        "phone": 3052200147
    },
    {
        "id": 24,
        "name": "CVS",
        "lat": 25.767992,
        "lng": -80.359206,
        "street": "10044 West Flagler St",
        "city": "Miami",
        "state": "Florida",
        "zipcode": 33174,
        "phone": 7863530088
    },
    {
        "id": 25,
        "name": "CVS",
        "lat": 25.772265,
        "lng": -80.255001,
        "street": "3695 Flagler Street",
        "city": "Miami",
        "state": "Florida",
        "zipcode": 33135,
        "phone": 3056439304
    },
    {
        "id": 26,
        "name": "CVS",
        "lat": 25.750183,
        "lng": -80.236591,
        "street": "2500 Southwest 22nd Street",
        "city": "Miami",
        "state": "Florida",
        "zipcode": 33145,
        "phone": 3052858935
    },
    {
        "id": 27,
        "name": "CVS",
        "lat": 25.699986,
        "lng": -80.367170,
        "street": "10720 Sw 72 St",
        "city": "Miami",
        "state": "Florida",
        "zipcode": 33173,
        "phone": 3052719909
    },
    {
        "id": 28,
        "name": "CVS",
        "lat": 25.698860,
        "lng": -80.436482,
        "street": "15000 Sw 72 St",
        "city": "Miami",
        "state": "Florida",
        "zipcode": 33193,
        "phone": 3053871300
    },
    {
        "id": 29,
        "name": "CVS",
        "lat": 25.664144,
        "lng": -80.405732,
        "street": "12955 Southwest 112th Street",
        "city": "Miami",
        "state": "Florida",
        "zipcode": 33186,
        "phone": 3053824161
    },
    {
        "id": 30,
        "name": "CVS",
        "lat": 25.760168,
        "lng": -80.391177,
        "street": "12000 Sw 8th Street",
        "city": "Miami",
        "state": "Florida",
        "zipcode": 33184,
        "phone": 3052258900
    },
    {
        "id": 31,
        "name": "CVS",
        "lat": 25.772824,
        "lng": -80.189259,
        "street": "170 Southeast 3rd Avenue",
        "city": "Miami",
        "state": "Florida",
        "zipcode": 33131,
        "phone": 3053741140
    },
    {
        "id": 32,
        "name": "CVS",
        "lat": 25.848423,
        "lng": -80.185002,
        "street": "591 Ne 79th Street",
        "city": "Miami",
        "state": "Florida",
        "zipcode": 33138,
        "phone": 3057581742
    },
    {
        "id": 33,
        "name": "CVS",
        "lat": 25.729362,
        "lng": -80.429262,
        "street": "14491 Sw 42 St",
        "city": "Miami",
        "state": "Florida",
        "zipcode": 33175,
        "phone": 3055140299
    },
    {
        "id": 34,
        "name": "CVS",
        "lat": 25.763836,
        "lng": -80.287575,
        "street": "5695 Southwest 8th Street",
        "city": "Miami",
        "state": "Florida",
        "zipcode": 33134,
        "phone": 3052665526
    },
    {
        "id": 35,
        "name": "CVS",
        "lat": 25.670404,
        "lng": -80.431546,
        "street": "14665 Sw 104 St",
        "city": "Miami",
        "state": "Florida",
        "zipcode": 33186,
        "phone": 7863389884
    },
    {
        "id": 36,
        "name": "CVS",
        "lat": 25.927517,
        "lng": -80.188945,
        "street": "16550 Northeast 6th Avenue",
        "city": "Miami",
        "state": "Florida",
        "zipcode": 33162,
        "phone": 3059406172
    },
    {
        "id": 37,
        "name": "CVS",
        "lat": 25.578134,
        "lng": -80.335846,
        "street": "20345 Old Cutler Road",
        "city": "Miami",
        "state": "Florida",
        "zipcode": 33189,
        "phone": 3052329130
    },
    {
        "id": 38,
        "name": "CVS",
        "lat": 25.589751,
        "lng": -80.359819,
        "street": "19198 South Dixie Highway, Across From Burlington Coat Factory",
        "city": "Miami",
        "state": "Florida",
        "zipcode": 33157,
        "phone": 3052528662
    },
    {
        "id": 39,
        "name": "CVS",
        "lat": 25.776380,
        "lng": -80.188192,
        "street": "200 Biscayne Boulevard",
        "city": "Miami",
        "state": "Florida",
        "zipcode": 33132,
        "phone": 7868380316
    },
    {
        "id": 40,
        "name": "CVS at Target",
        "lat": 25.808065,
        "lng": -80.194023,
        "street": "3401 N Miami Ave Ste 100",
        "city": "Miami",
        "state": "Florida",
        "zipcode": 33127,
        "phone": "not available"
    },
    {
        "id": 41,
        "name": "CVS at Target",
        "lat": 25.771602,
        "lng": -80.360369,
        "street": "10101 W Flagler St Miami",
        "city": "Miami",
        "state": "Florida",
        "zipcode": 33174,
        "phone": "not available"
    },
    {
        "id": 42,
        "name": "CVS",
        "lat": 25.646967,
        "lng": -80.337247,
        "street": "8831 Southwest 136th Street",
        "city": "Miami",
        "state": "Florida",
        "zipcode": 33176,
        "phone": 3052330296
    },
    {
        "id": 43,
        "name": "CVS at Target",
        "lat": 25.576449,
        "lng": -80.375434,
        "street": "20500 Sw 112th Ave",
        "city": "Miami",
        "state": "Florida",
        "zipcode": 33189,
        "phone": "not available"
    },
    {
        "id": 44,
        "name": "CVS at Target",
        "lat": 25.735729,
        "lng": -80.321271,
        "street": "7795 Sw 40th St",
        "city": "Miami",
        "state": "Florida",
        "zipcode": 33155,
        "phone": "not available"
    },
    {
        "id": 45,
        "name": "CVS at Target",
        "lat": 25.672266,
        "lng": -80.323122,
        "street": "7800 Sw 104th St",
        "city": "Miami",
        "state": "Florida",
        "zipcode": 33156,
        "phone": "not available"
    },
    {
        "id": 46,
        "name": "CVS",
        "lat": 25.856277,
        "lng": -80.124813,
        "street": "631 71 St",
        "city": "Miami",
        "state": "Florida",
        "zipcode": 33141,
        "phone": 7862590496
    },
    {
        "id": 47,
        "name": "CVS",
        "lat": 25.759632,
        "lng": -80.419742,
        "street": "13830 Southwest 8th Street",
        "city": "Miami",
        "state": "Florida",
        "zipcode": 33184,
        "phone": 3055541121
    },
    {
        "id": 48,
        "name": "CVS",
        "lat": 25.926268,
        "lng": -80.307818,
        "street": "16801 Nw 67 Ave",
        "city": "Miami",
        "state": "Florida",
        "zipcode": 33015,
        "phone": 3053628255
    },
    {
        "id": 49,
        "name": "CVS",
        "lat": 25.683785,
        "lng": -80.446299,
        "street": "15700 Southwest 88th Street",
        "city": "Miami",
        "state": "Florida",
        "zipcode": 33196,
        "phone": 3053852570
    },
    {
        "id": 50,
        "name": "CVS",
        "lat": 25.747765,
        "lng": -80.388721,
        "street": "11865 Sw 26 St",
        "city": "Miami",
        "state": "Florida",
        "zipcode": 33175,
        "phone": 3052201378
    },
    {
        "id": 51,
        "name": "CVS",
        "lat": 25.773537,
        "lng": -80.221587,
        "street": "1601 West Flagler St",
        "city": "Miami",
        "state": "Florida",
        "zipcode": 33135,
        "phone": 3056493643
    },
    {
        "id": 52,
        "name": "CVS",
        "lat": 25.766259,
        "lng": -80.214106,
        "street": "1177 Sw 8th Street",
        "city": "Miami",
        "state": "Florida",
        "zipcode": 33130,
        "phone": 3052856861
    },
    {
        "id": 53,
        "name": "CVS",
        "lat": 25.730228,
        "lng": -80.400091,
        "street": "12701 Sw 42nd St",
        "city": "Miami",
        "state": "Florida",
        "zipcode": 33175,
        "phone": 3055532767
    },
    {
        "id": 54,
        "name": "CVS",
        "lat": 25.671799,
        "lng": -80.442924,
        "street": "10201 Hammocks Boulevard #112",
        "city": "Miami",
        "state": "Florida",
        "zipcode": 33196,
        "phone": 3053868381
    },
    {
        "id": 55,
        "name": "CVS",
        "lat": 25.733559,
        "lng": -80.287498,
        "street": "5748 Sw 40th St",
        "city": "Miami",
        "state": "Florida",
        "zipcode": 33155,
        "phone": 3056615650
    },
    {
        "id": 56,
        "name": "CVS",
        "lat": 25.782579,
        "lng": -80.190209,
        "street": "888 Biscayne Blvd",
        "city": "Miami",
        "state": "Florida",
        "zipcode": 33132,
        "phone": 3053728144
    },
    {
        "id": 57,
        "name": "CVS",
        "lat": 25.769884,
        "lng": -80.369997,
        "street": "10761 West Flagler Street",
        "city": "Miami",
        "state": "Florida",
        "zipcode": 33174,
        "phone": 3052233405
    },
    {
        "id": 58,
        "name": "CVS",
        "lat": 25.627462,
        "lng": -80.416352,
        "street": "13749 Southwest 152nd Street",
        "city": "Miami",
        "state": "Florida",
        "zipcode": 33177,
        "phone": 3052552893
    },
    {
        "id": 59,
        "name": "CVS",
        "lat": 25.592438,
        "lng": -80.377609,
        "street": "11398 Quail Roost Drive",
        "city": "Miami",
        "state": "Florida",
        "zipcode": 33157,
        "phone": 3052533355
    },
    {
        "id": 60,
        "name": "CVS",
        "lat": 25.819373,
        "lng": -80.188422,
        "street": "4800 Biscayne Boulevard",
        "city": "Miami",
        "state": "Florida",
        "zipcode": 33137,
        "phone": 3055764347
    },
    {
        "id": 61,
        "name": "CVS",
        "lat": 25.897270,
        "lng": -80.162386,
        "street": "13250 N. Biscayne Blvd",
        "city": "Miami",
        "state": "Florida",
        "zipcode": 33181,
        "phone": 3059741186
    },
    {
        "id": 62,
        "name": "CVS",
        "lat": 25.731931,
        "lng": -80.304553,
        "street": "6780 Southwest 40th Street",
        "city": "Miami",
        "state": "Florida",
        "zipcode": 33155,
        "phone": 3056671119
    },
    {
        "id": 63,
        "name": "CVS",
        "lat": 25.687298,
        "lng": -80.420928,
        "street": "14055 Sw 88th Street",
        "city": "Miami",
        "state": "Florida",
        "zipcode": 33186,
        "phone": 3053801343
    },
    {
        "id": 64,
        "name": "CVS",
        "lat": 25.912729,
        "lng": -80.332364,
        "street": "15395 Northwest 82nd Avenue",
        "city": "Miami",
        "state": "Florida",
        "zipcode": 33106,
        "phone": 3053641143
    },
    {
        "id": 65,
        "name": "CVS",
        "lat": 25.765445,
        "lng": -80.239272,
        "street": "2713 Sw 8th Street",
        "city": "Miami",
        "state": "Florida",
        "zipcode": 33135,
        "phone": 3056423070
    },
    {
        "id": 66,
        "name": "CVS",
        "lat": 25.760339,
        "lng": -80.392174,
        "street": "12180 Sw 8th St.",
        "city": "Miami",
        "state": "Florida",
        "zipcode": 33184,
        "phone": 3055544464
    },
    {
        "id": 67,
        "name": "CVS",
        "lat": 25.8083895,
        "lng": -80.3381158,
        "street": "3750 NW 87th Ave",
        "city": "Doral",
        "state": "Florida",
        "zipcode": 33178,
        "phone": 7863318203
    },
    {
        "id": 68,
        "name": "CVS",
        "lat": 25.812215,
        "lng": -80.370054,
        "street": "10701 NW 41st St",
        "city": "Doral",
        "state": "Florida",
        "zipcode": 33178,
        "phone": 3054770184
    },
    {
        "id": 69,
        "name": "CVS",
        "lat": 25.840089,
        "lng": -80.370824,
        "street": "10700 NW 74th St",
        "city": "Doral",
        "state": "Florida",
        "zipcode": 33178,
        "phone": 3055945984
    },
    {
        "id": 70,
        "name": "CVS",
        "lat": 25.956603,
        "lng": -80.206553,
        "street": "19800 Northwest 2nd Avenue",
        "city": "Doral",
        "state": "Florida",
        "zipcode": 33169,
        "phone": 3054935293
    },
    {
        "id": 71,
        "name": "CVS",
        "lat": 25.956603,
        "lng": -80.206553,
        "street": "19800 Northwest 2nd Avenue",
        "city": "Miami",
        "state": "Florida",
        "zipcode": 33169,
        "phone": 3054935293
    },
    {
        "id": 72,
        "name": "CVS",
        "lat": 25.764298,
        "lng": -80.273989,
        "street": "4801 Southwest 8th Street",
        "city": "Miami",
        "state": "Florida",
        "zipcode": 33134,
        "phone": 3054464641
    },
    {
        "id": 73,
        "name": "CVS",
        "lat": 25.779395,
        "lng": -80.246725,
        "street": "3105 Nw 7th Street",
        "city": "Miami",
        "state": "Florida",
        "zipcode": 33134,
        "phone": 3056499364
    },
    {
        "id": 74,
        "name": "CVS",
        "lat": 25.813615,
        "lng": -80.130882,
        "street": "4040 Prairie Avenue",
        "city": "Miami",
        "state": "Florida",
        "zipcode": 33140,
        "phone": 3055326189
    },
    {
        "id": 75,
        "name": "CVS",
        "lat": 25.633542,
        "lng": -80.336585,
        "street": "14705 South Dixie Highway",
        "city": "Miami",
        "state": "Florida",
        "zipcode": 33176,
        "phone": 3052520595
    },
    {
        "id": 76,
        "name": "CVS",
        "lat": 25.628954,
        "lng": -80.375130,
        "street": "11221 Southwest 152nd Street",
        "city": "Miami",
        "state": "Florida",
        "zipcode": 33157,
        "phone": 3052515033
    },
    {
        "id": 77,
        "name": "CVS",
        "lat": 25.684818,
        "lng": -80.366388,
        "street": "9031 Southwest 107th Avenue",
        "city": "Miami",
        "state": "Florida",
        "zipcode": 33176,
        "phone": 3052746776
    },
    {
        "id": 78,
        "name": "CVS",
        "lat": 25.769078,
        "lng": -80.336925,
        "street": "8720 West Flagler Street",
        "city": "Miami",
        "state": "Florida",
        "zipcode": 33174,
        "phone": 3052201121
    },
    {
        "id": 79,
        "name": "CVS",
        "lat": 25.665259,
        "lng": -80.323356,
        "street": "11299 South Dixie Highway Miami",
        "city": "Miami",
        "state": "Florida",
        "zipcode": 33156,
        "phone": 3052354744
    },
    {
        "id": 80,
        "name": "CVS at Target",
        "lat": 25.693492,
        "lng": -80.305749,
        "street": "8350 S Dixie Hwy",
        "city": "Miami",
        "state": "Florida",
        "zipcode": 33143,
        "phone": "not available"
    },
    {
        "id": 81,
        "name": "CVS",
        "lat": 25.690510,
        "lng": -80.314916,
        "street": "7551 Southwest 88th Street",
        "city": "Miami",
        "state": "Florida",
        "zipcode": 33143,
        "phone": 3056617904
    },
    {
        "id": 82,
        "name": "CVS at Target",
        "lat": 25.686035,
        "lng": -80.437346,
        "street": "15005 Sw 88th St",
        "city": "Miami",
        "state": "Florida",
        "zipcode": 33196,
        "phone": "not available"
    },
    {
        "id": 83,
        "name": "CVS",
        "lat": 25.689351,
        "lng": -80.307078,
        "street": "8765 South Dixie Highway",
        "city": "Miami",
        "state": "Florida",
        "zipcode": 33143,
        "phone": 3057406840
    },
    {
        "id": 84,
        "name": "CVS",
        "lat": 25.746452,
        "lng": -80.350542,
        "street": "9686 Sw 24 St",
        "city": "Miami",
        "state": "Florida",
        "zipcode": 33165,
        "phone": 3054249026
    },
    {
        "id": 85,
        "name": "CVS",
        "lat": 25.702056,
        "lng": -80.350770,
        "street": "9701 Sw 72nd St",
        "city": "Miami",
        "state": "Florida",
        "zipcode": 33173,
        "phone": 3052731247
    },
    {
        "id": 86,
        "name": "CVS",
        "lat": 25.625739,
        "lng": -80.416895,
        "street": "13796 Sw 152 St",
        "city": "Miami",
        "state": "Florida",
        "zipcode": 33177,
        "phone": 3052354368
    },
    {
        "id": 87,
        "name": "Walgreens",
        "lat": 25.777746,
        "lng": -80.287575,
        "street": "Walgreens, 655 NW 57th Ave",
        "city": "Miami",
        "state": "Florida",
        "zipcode": 33126,
        "phone": 7863881466
    },
    {
        "id": 88,
        "name": "Walgreens",
        "lat": 25.761255,
        "lng": -80.197575,
        "street": "200 SW 13th St",
        "city": "Miami",
        "state": "Florida",
        "zipcode": 33130,
        "phone": 3058546340
    },
    {
        "id": 89,
        "name": "Walgreens",
        "lat": 25.773897,
        "lng": -80.188335,
        "street": "1 SE 3rd Ave",
        "city": "Miami",
        "state": "Florida",
        "zipcode": 33131,
        "phone": 3053734320
    },
    {
        "id": 90,
        "name": "Walgreens",
        "lat": 25.795213,
        "lng": -80.222807,
        "street": "1695 NW 20th St",
        "city": "Miami",
        "state": "Florida",
        "zipcode": 33142,
        "phone": 3053247603
    },
    {
        "id": 91,
        "name": "Walgreens",
        "lat": 25.771862,
        "lng": -80.239494,
        "street": "2700 W Flagler St",
        "city": "Miami",
        "state": "Florida",
        "zipcode": 33135,
        "phone": 3056441994
    },
    {
        "id": 92,
        "name": "Walgreens",
        "lat": 25.806869,
        "lng": -80.188858,
        "street": "3103 Biscayne Blvd",
        "city": "Miami",
        "state": "Florida",
        "zipcode": 33137,
        "phone": 3055730130
    },
    {
        "id": 93,
        "name": "Walgreens",
        "lat": 25.773090,
        "lng": -80.214964,
        "street": "1201 SW 1st St",
        "city": "Miami",
        "state": "Florida",
        "zipcode": 33135,
        "phone": 3053248193
    },
    {
        "id": 94,
        "name": "Walgreens",
        "lat": 25.733711,
        "lng": -80.253259,
        "street": "3655 S Dixie Hwy",
        "city": "Miami",
        "state": "Florida",
        "zipcode": 33133,
        "phone": 3054444366
    },
    {
        "id": 95,
        "name": "Walgreens",
        "lat": 25.766233,
        "lng": -80.207606,
        "street": "801 SW 8th St",
        "city": "Miami",
        "state": "Florida",
        "zipcode": 33130,
        "phone": 3058540131
    },
    {
        "id": 96,
        "name": "Walgreens",
        "lat": 25.832707,
        "lng": -80.209037,
        "street": "6200 NW 7th Ave",
        "city": "Miami",
        "state": "Florida",
        "zipcode": 33150,
        "phone": 3057518893
    },
    {
        "id": 97,
        "name": "Walgreens",
        "lat": 25.734868,
        "lng": -80.250036,
        "street": "3490 Bird Rd",
        "city": "Miami",
        "state": "Florida",
        "zipcode": 33133,
        "phone": 3054465037
    },
    {
        "id": 98,
        "name": "Walgreens",
        "lat": 25.774520,
        "lng": -80.193478,
        "street": "1 E Flagler St",
        "city": "Miami",
        "state": "Florida",
        "zipcode": 33131,
        "phone": 3053715868
    },
    {
        "id": 99,
        "name": "Walgreens",
        "lat": 25.825939,
        "lng": -80.192171,
        "street": "161 NE 54th St",
        "city": "Miami",
        "state": "Florida",
        "zipcode": 33137,
        "phone": 3057518887
    },
    {
        "id": 100,
        "name": "Walgreens",
        "lat": 25.734917,
        "lng": -80.286922,
        "street": "5731 Bird Rd",
        "city": "Miami",
        "state": "Florida",
        "zipcode": 33155,
        "phone": 3056660757
    },
    {
        "id": 101,
        "name": "Walgreens",
        "lat": 25.763943,
        "lng": -80.263930,
        "street": "4200 SW 8th St",
        "city": "Coral Gables",
        "state": "Florida",
        "zipcode": 33134,
        "phone": 3054442544
    },
    {
        "id": 102,
        "name": "Walgreens",
        "lat": 25.774837,
        "lng": -80.137494,
        "street": "524 Jefferson Ave",
        "city": "Miami Beach",
        "state": "Florida",
        "zipcode": 33139,
        "phone": 3055317688
    },
    {
        "id": 103,
        "name": "Walgreens",
        "lat": 25.774961,
        "lng": -80.132609,
        "street": "501 Collins Ave",
        "city": "Miami Beach",
        "state": "Florida",
        "zipcode": 33139,
        "phone": 7863531080
    },
    {
        "id": 104,
        "name": "Walgreens",
        "lat": 25.766233,
        "lng": -80.207606,
        "street": "801 SW 8th St",
        "city": "Miami",
        "state": "Florida",
        "zipcode": 33130,
        "phone": 3058540131
    },
    {
        "id": 105,
        "name": "Walgreens",
        "lat": 25.773897,
        "lng": -80.188335,
        "street": "1 SE 3rd Ave",
        "city": "Miami",
        "state": "Florida",
        "zipcode": 33131,
        "phone": 3053734320
    },
    {
        "id": 106,
        "name": "Walgreens",
        "lat": 25.761255,
        "lng": -80.197575,
        "street": "200 SW 13th St",
        "city": "Miami",
        "state": "Florida",
        "zipcode": 33130,
        "phone": 3053734320
    },
    {
        "id": 107,
        "name": "Walgreens",
        "lat": 25.777746,
        "lng": -80.287575,
        "street": "655 NW 57th Ave",
        "city": "Miami",
        "state": "Florida",
        "zipcode": 33126,
        "phone": 7863881466
    },
    {
        "id": 108,
        "name": "Walgreens",
        "lat": 25.766233,
        "lng": -80.207606,
        "street": "801 SW 8th St",
        "city": "Miami",
        "state": "Florida",
        "zipcode": 33130,
        "phone": 3058540131
    },
    {
        "id": 109,
        "name": "Walgreens",
        "lat": 25.806869,
        "lng": -80.188858,
        "street": "3103 Biscayne Blvd",
        "city": "Miami",
        "state": "Florida",
        "zipcode": 33137,
        "phone": 3055730130
    },
    {
        "id": 110,
        "name": "Walgreens",
        "lat": 25.883363,
        "lng": -80.243894,
        "street": "11920 NW 27th Ave",
        "city": "Miami",
        "state": "Florida",
        "zipcode": 33167,
        "phone": 3056810970
    },
    {
        "id": 111,
        "name": "Walgreens",
        "lat": 25.772162,
        "lng": -80.331686,
        "street": "8327 W Flagler St",
        "city": "Miami",
        "state": "Florida",
        "zipcode": 33144,
        "phone": 3052612214
    },
    {
        "id": 111,
        "name": "Walgreens",
        "lat": 25.773897,
        "lng": -80.188335,
        "street": "1 SE 3rd Ave",
        "city": "Miami",
        "state": "Florida",
        "zipcode": 33131,
        "phone": 3053734320
    },
    {
        "id": 112,
        "name": "Walgreens",
        "lat": 25.806869,
        "lng": -80.188858,
        "street": "3103 Biscayne Blvd, Miami, FL 33137",
        "city": "Miami",
        "state": "Florida",
        "zipcode": 33137,
        "phone": 3055730130
    },
    {
        "id": 113,
        "name": "Walgreens",
        "lat": 25.777746,
        "lng": -80.287575,
        "street": "655 NW 57th Ave",
        "city": "Miami",
        "state": "Florida",
        "zipcode": 33126,
        "phone": 7863881466
    },
    {
        "id": 114,
        "name": "Walgreens",
        "lat": 25.846484,
        "lng": -80.242325,
        "street": "7910 NW 27th Ave",
        "city": "Miami",
        "state": "Florida",
        "zipcode": 33147,
        "phone": 3056910881
    },
    {
        "id": 115,
        "name": "Walgreens",
        "lat": 25.761255,
        "lng": -80.197575,
        "street": "200 SW 13th St",
        "city": "Miami",
        "state": "Florida",
        "zipcode": 33130,
        "phone": 3058546340
    },
    {
        "id": 116,
        "name": "Walgreens",
        "lat": 25.861330,
        "lng": -80.210258,
        "street": "9498 NW 7th Ave",
        "city": "Miami",
        "state": "Florida",
        "zipcode": 33150,
        "phone": 3058361351
    },
    {
        "id": 117,
        "name": "Walgreens",
        "lat": 25.780863,
        "lng": -80.140678,
        "street": "1011 Alton Rd",
        "city": "Miami Beach",
        "state": "Florida",
        "zipcode": 33139,
        "phone": 3054241145
    },
    {
        "id": 118,
        "name": "Walgreens at University of Miami Hospital",
        "lat": 25.788704,
        "lng": -80.215835,
        "street": "1400 NW 12th Ave Suite #2002",
        "city": "Miami",
        "state": "Florida",
        "zipcode": 33136,
        "phone": 3057029065
    },
    {
        "id": 119,
        "name": "Walgreens",
        "lat": 25.747234,
        "lng": -80.332234,
        "street": "8450 Coral Way",
        "city": "Miami",
        "state": "Florida",
        "zipcode": 33155,
        "phone": 3052219271
    },
    {
        "id": 120,
        "name": "Walgreens",
        "lat": 25.795213,
        "lng": -80.222807,
        "street": "1695 NW 20th St",
        "city": "Miami",
        "state": "Florida",
        "zipcode": 33142,
        "phone": 3053247603
    },
    {
        "id": 121,
        "name": "Walgreens",
        "lat": 25.781629,
        "lng": -80.257484,
        "street": "3715 NW 7th St",
        "city": "Miami",
        "state": "Florida",
        "zipcode": 33126,
        "phone": 3056496301
    },
    {
        "id": 122,
        "name": "Walgreens",
        "lat": 25.761352,
        "lng": -80.305163,
        "street": "998 SW 67th Ave",
        "city": "Miami",
        "state": "Florida",
        "zipcode": 33144,
        "phone": 3052613602
    },
    {
        "id": 123,
        "name": "Walgreens",
        "lat": 25.781629,
        "lng": -80.257484,
        "street": "3715 NW 7th St",
        "city": "Miami",
        "state": "Florida",
        "zipcode": 33126,
        "phone": 3056496301
    },
    {
        "id": 124,
        "name": "Walgreens",
        "lat": 25.733711,
        "lng": -80.253259,
        "street": "3655 S Dixie Hwy",
        "city": "Miami",
        "state": "Florida",
        "zipcode": 33133,
        "phone": 3054444366
    },
    {
        "id": 125,
        "name": "Walgreens",
        "lat": 25.774520,
        "lng": -80.193478,
        "street": "1 E Flagler St",
        "city": "Miami",
        "state": "Florida",
        "zipcode": 33131,
        "phone": 3053715868
    },
    {
        "id": 126,
        "name": "Walgreens",
        "lat": 25.734868,
        "lng": -80.250036,
        "street": "3490 Bird Rd",
        "city": "Miami",
        "state": "Florida",
        "zipcode": 33133,
        "phone": 3054465037
    },
    {
        "id": 127,
        "name": "Walgreens",
        "lat": 25.780296,
        "lng": -80.221413,
        "street": "1699 NW 7th St",
        "city": "Miami",
        "state": "Florida",
        "zipcode": 33125,
        "phone": 3056444032
    },
    {
        "id": 128,
        "name": "Walgreens",
        "lat": 25.771862,
        "lng": -80.239494,
        "street": "2700 W Flagler St",
        "city": "Miami",
        "state": "Florida",
        "zipcode": 33135,
        "phone": 3056441994
    },
    {
        "id": 129,
        "name": "Walgreens",
        "lat": 25.750483,
        "lng": -80.251560,
        "street": "3595 Coral Way",
        "city": "Miami",
        "state": "Florida",
        "zipcode": 33145,
        "phone": 3054448427
    },
    {
        "id": 130,
        "name": "Walgreens", 
        "lat": 25.773090,
        "lng": -80.214964,
        "street": "1201 SW 1st St",
        "city": "Miami",
        "state": "Florida",
        "zipcode": 33135,
        "phone":  3053248193
    },
    {
        "id": 131,
        "name": "Walgreens", 
        "lat": 25.794414,
        "lng": -80.140852,
        "street": "1845 Alton Rd",
        "city": "Miami Beach",
        "state": "Florida",
        "zipcode": 33139,
        "phone":  3055318868
    },
    {
        "id": 132,
        "name": "Walgreens Pharmacy at Care Resource Miami", 
        "lat": 25.812666,
        "lng": -80.188871,
        "street": "3801 Biscayne Blvd",
        "city": "Miami",
        "state": "Florida",
        "zipcode": 33137,
        "phone":  3055318868
    },
    {
        "id": 133,
        "name": "Walgreens", 
        "lat": 25.832707,
        "lng": -80.209037,
        "street": "6200 NW 7th Ave",
        "city": "Miami",
        "state": "Florida",
        "zipcode": 33150,
        "phone":   3057518893
    },
    {
        "id": 134,
        "name": "Walgreens", 
        "lat": 25.888567,
        "lng": -80.163197,
        "street": "12295 Biscayne Blvd",
        "city": "Miami",
        "state": "Florida",
        "zipcode": 33181,
        "phone": 3058936860
    },
    {
        "id": 135,
        "name": "Walgreens", 
        "lat": 25.795213,
        "lng": -80.222807,
        "street": "1695 NW 20th St",
        "city": "Miami",
        "state": "Florida",
        "zipcode": 33142,
        "phone": 3053247603
    },
    {
        "id": 136,
        "name": "Walgreens", 
        "lat": 25.768062,
        "lng": -80.369432,
        "street": "10700 W Flagler St",
        "city": "Miami",
        "state": "Florida",
        "zipcode": 33174,
        "phone": 3054241140
    },
    {
        "id": 137,
        "name": "Walgreens", 
        "lat": 25.718674,
        "lng": -80.302650,
        "street": "6701 Miller Dr, Miami, FL 33155",
        "city": "Miami",
        "state": "Florida",
        "zipcode": 33155,
        "phone": 7863649950
    },
    {
        "id": 138,
        "name": "Walgreens", 
        "lat": 25.791181,
        "lng": -80.128938,
        "street": "1669 Collins Ave",
        "city": "Miami Beach",
        "state": "Florida",
        "zipcode": 33139,
        "phone": 3055327909
    },
    {
        "id": 139,
        "name": "Walgreens Pharmacy", 
        "lat": 25.825939,
        "lng": -80.192171,
        "street": "161 NE 54th St",
        "city": "Miami",
        "state": "Florida",
        "zipcode": 33137,
        "phone": 3055327909
    },
    {
        "id": 140,
        "name": "Walgreens", 
        "lat": 25.832707,
        "lng": -80.209037,
        "street": "6200 NW 7th Ave #62nd",
        "city": "Miami",
        "state": "Florida",
        "zipcode": 33150,
        "phone": 3057518893
    },
    {
        "id": 141,
        "name": "Walgreens", 
        "lat": 25.733176,
        "lng": -80.367213,
        "street": "10609 SW 40th St",
        "city": "Miami",
        "state": "Florida",
        "zipcode": 33165,
        "phone": 3055538273
    },
    {
        "id": 141,
        "name": "Walgreens", 
        "lat": 25.813297,
        "lng": -80.125324,
        "street": "4049 Pine Tree Dr",
        "city": "Miami Beach",
        "state": "Florida",
        "zipcode": 33140,
        "phone": 3055538273
    },
    {
        "id": 142,
        "name": "Walgreens", 
        "lat": 25.851758,
        "lng": -80.142073,
        "street": "2000 Normandy Dr",
        "city": "Miami Beach",
        "state": "Florida",
        "zipcode": 33141,
        "phone": 3055031003
    },
    {
        "id": 143,
        "name": "Walgreens", 
        "lat": 25.747534,
        "lng": -80.352553,
        "street": "9701 SW 24th St",
        "city": "Miami",
        "state": "Florida",
        "zipcode": 33165,
        "phone": 3055031003
    },
    {
        "id": 144,
        "name": "Walgreens", 
        "lat": 25.883320,
        "lng": -80.211442,
        "street": "750 NW 119th St",
        "city": "Miami",
        "state": "Florida",
        "zipcode": 33168,
        "phone": 3056859970
    },
    {
        "id": 145,
        "name": "Walgreens", 
        "lat": 25.774837,
        "lng": -80.137494,
        "street": "524 Jefferson Ave",
        "city": "Miami Beach",
        "state": "Florida",
        "zipcode": 33139,
        "phone": 3055317688
    },
    {
        "id": 146,
        "name": "Walgreens", 
        "lat": 25.785564,
        "lng": -80.131126,
        "street": "1400 Collins Ave",
        "city": "Miami Beach",
        "state": "Florida",
        "zipcode": 33139,
        "phone": 3054231050
    },
    {
        "id": 147,
        "name": "Walgreens", 
        "lat": 25.772162,
        "lng": -80.331686,
        "street": "8327 W Flagler St",
        "city": "Miami",
        "state": "Florida",
        "zipcode": 33144,
        "phone": 3052612214
    },
    {
        "id": 148,
        "name": "Walgreens", 
        "lat": 25.715533,
        "lng": -80.345549,
        "street": "9310 SW 56th St",
        "city": "Miami",
        "state": "Florida",
        "zipcode": 33165,
        "phone":  3052743040
    },
    {
        "id": 149,
        "name": "Walgreens at University of Miami - Lennar Center", 
        "lat": 25.713410,
        "lng": -80.280129,
        "street": "5555 Ponce de Leon Blvd #186",
        "city": "Coral Gables",
        "state": "Florida",
        "zipcode": 33146,
        "phone":  3053510606
    },
    {
        "id": 150,
        "name": "Walgreens", 
        "lat": 25.760323,
        "lng": -80.416352,
        "street": "13698 SW 8th St",
        "city": "Coral Gables",
        "state": "Florida",
        "zipcode": 33184,
        "phone": 3052214589
    },
    {
        "id": 151,
        "name": "Walgreens", 
        "lat": 25.941784,
        "lng": -80.212524,
        "street": "690 NW 183rd St",
        "city": "Miami",
        "state": "Florida",
        "zipcode": 33169,
        "phone": 3052496792
    },
    {
        "id": 152,
        "name": "Walgreens", 
        "lat": 25.957798,
        "lng": -80.203285,
        "street": "19935 NW 2nd Ave",
        "city": "Miami",
        "state": "Florida",
        "zipcode": 33169,
        "phone": 3056537852
    },
    {
        "id": 153,
        "name": "Walgreens", 
        "lat": 25.742862,
        "lng": -80.423655,
        "street": "14190 SW 26th St",
        "city": "Miami",
        "state": "Florida",
        "zipcode": 33175,
        "phone": 3055597745
    },
    {
        "id": 154,
        "name": "Walgreens", 
        "lat": 25.861330,
        "lng": -80.210258,
        "street": "9498 NW 7th Ave",
        "city": "Miami",
        "state": "Florida",
        "zipcode": 33150,
        "phone": 3058361351
    },
    {
        "id": 155,
        "name": "Walgreens", 
        "lat": 25.822455,
        "lng": -80.272872,
        "street": " 400 Hialeah Dr, Hialeah, FL 33010",
        "city": "Hialeah",
        "state": "Florida",
        "zipcode": 33010,
        "phone": 3058848774
    },
    {
        "id": 156,
        "name": "Walgreens Pharmacy", 
        "lat": 25.734917,
        "lng": -80.286922,
        "street": "5731 Bird Rd",
        "city": "Miami",
        "state": "Florida",
        "zipcode": 33155,
        "phone": 3056660757
    },
    {
        "id": 157,
        "name": "Walgreens Pharmacy", 
        "lat": 25.734917,
        "lng": -80.286922,
        "street": "5731 Bird Rd",
        "city": "Miami",
        "state": "Florida",
        "zipcode": 33155,
        "phone": 3056660757
    },
    {
        "id": 158,
        "name": "Walgreens Pharmacy", 
        "lat": 25.859303,
        "lng": -80.121311,
        "street": "7340 Collins Ave",
        "city": "Miami Beach",
        "state": "Florida",
        "zipcode": 33141,
        "phone": 3058645487
    },
    {
        "id": 159,
        "name": "Walgreens", 
        "lat": 25.656420,
        "lng": -80.398556,
        "street": "12630 SW 120th St",
        "city": "Miami",
        "state": "Florida",
        "zipcode": 33186,
        "phone": 3052537837
    },
    {
        "id": 160,
        "name": "Walgreens", 
        "lat": 25.671301,
        "lng": -80.384741,
        "street": "11700 SW 104th St",
        "city": "Miami",
        "state": "Florida",
        "zipcode": 33186,
        "phone":  3059611319
    },
    {
        "id": 161,
        "name": "Walgreens Pharmacy", 
        "lat": 25.883363,
        "lng": -80.243894,
        "street": "11920 NW 27th Ave",
        "city": "Miami",
        "state": "Florida",
        "zipcode": 33167,
        "phone":  3059611319
    },
    {
        "id": 162,
        "name": "Walgreens Pharmacy", 
        "lat": 25.614355,
        "lng": -80.345978,
        "street": "16795 S Dixie Hwy",
        "city": "Miami",
        "state": "Florida",
        "zipcode": 33157,
        "phone": 3052334786
    },
    {
        "id": 163,
        "name": "Walgreens", 
        "lat": 25.646870,
        "lng": -80.333727,
        "street": "8650 SW 132nd St",
        "city": "Miami",
        "state": "Florida",
        "zipcode": 33156,
        "phone": 3059714703
    },
    {
        "id": 164,
        "name": "Walgreens Pharmacy", 
        "lat": 25.768062,
        "lng": -80.369432,
        "street": "10700 W Flagler St",
        "city": "Miami",
        "state": "Florida",
        "zipcode": 33174,
        "phone": 3054241140
    },
    {
        "id": 165,
        "name": "Walgreens", 
        "lat": 25.830209,
        "lng": -80.266238,
        "street": "780 E 9th St",
        "city": "Hialeah",
        "state": "Florida",
        "zipcode": 33010,
        "phone": 3058857520
    },
    {
        "id": 166,
        "name": "Walgreens", 
        "lat": 25.625165,
        "lng": -80.413892,
        "street": " 15255 SW 137th Ave",
        "city": "Miami",
        "state": "Florida",
        "zipcode": 33177,
        "phone": 3052338499
    },
    {
        "id": 166,
        "name": "Walgreens Pharmacy", 
        "lat": 25.718674,
        "lng": -80.302650,
        "street": "6701 Miller Dr",
        "city": "Miami",
        "state": "Florida",
        "zipcode": 33155,
        "phone": 3052338499
    }
    
]
